[
  {
    "id": 1,
    "name": "성심당 본점",
    "phone": "1588-8069",
    "location": "random location"
  },
  {
    "id": 2,
    "name": "성심당 대전역점",
    "phone": "042-220-4138",
    "location": "random location"
  },
  {
    "id": 3,
    "name": "당신을 위한 빵집",
    "phone": "010-6785-5949",
    "location": "random location"
  },
  {
    "id": 4,
    "name": "하레하레",
    "phone": "042-483-1595",
    "location": "random location"
  },
  {
    "id": 5,
    "name": "캘리포니아베이커리카페",
    "phone": "042-486-8871",
    "location": "random location"
  },
  {
    "id": 6,
    "name": "성심당 롯데백화점대전점",
    "phone": "042-220-4136",
    "location": "random location"
  },
  {
    "id": 7,
    "name": "인유단베이커리",
    "phone": "042-483-4040",
    "location": "random location"
  },
  {
    "id": 8,
    "name": "싶빵공장 둔산월평직영점",
    "phone": "042-488-1856",
    "location": "random location"
  },
  {
    "id": 9,
    "name": "정성을다하는베이커리",
    "phone": "042-523-1579",
    "location": "random location"
  },
  {
    "id": 10,
    "name": "슬로우브레드",
    "phone": "042-861-0425",
    "location": "random location"
  }
]